{"type":"FeatureCollection","features":[{"type":"Feature","id":0,"geometry":{"type":"Point","coordinates":[110.54066630000005,-7.6815131999999267,0,null]},"properties":{"FID":0,"OID_":0,"Name":"Bengkel Motor Pak Kiryono","FolderPath":"UMKM ds Karangduren/Karangduren","Easting":110.5406663,"Northing":-7.6815132000000004,"Jenis":"Jasa"}},{"type":"Feature","id":1,"geometry":{"type":"Point","coordinates":[110.54082920000008,-7.6814925999999559,0,null]},"properties":{"FID":1,"OID_":0,"Name":"Desya Fashion","FolderPath":"UMKM ds Karangduren/Karangduren","Easting":110.5408292,"Northing":-7.6814926000000003,"Jenis":"Perdagangan"}},{"type":"Feature","id":2,"geometry":{"type":"Point","coordinates":[110.54080240000008,-7.6813337999999476,0,null]},"properties":{"FID":2,"OID_":0,"Name":"Nabila Cell & Sembako","FolderPath":"UMKM ds Karangduren/Karangduren","Easting":110.5408024,"Northing":-7.6813338,"Jenis":"Perdagangan"}},{"type":"Feature","id":3,"geometry":{"type":"Point","coordinates":[110.53990640000006,-7.6813430999999355,0,null]},"properties":{"FID":3,"OID_":0,"Name":"Bengkel Mobil JB Neotech","FolderPath":"UMKM ds Karangduren/Karangduren","Easting":110.53990640000001,"Northing":-7.6813431000000003,"Jenis":"Jasa"}},{"type":"Feature","id":4,"geometry":{"type":"Point","coordinates":[110.54010290000008,-7.6812064999999734,0,null]},"properties":{"FID":4,"OID_":0,"Name":"Toko Kayu Daya Enggal","FolderPath":"UMKM ds Karangduren/Karangduren","Easting":110.54010289999999,"Northing":-7.6812065,"Jenis":"Perdagangan"}},{"type":"Feature","id":5,"geometry":{"type":"Point","coordinates":[110.54035060000007,-7.6803324999999631,0,null]},"properties":{"FID":5,"OID_":0,"Name":"Syafia House","FolderPath":"UMKM ds Karangduren/Karangduren","Easting":110.5403506,"Northing":-7.6803324999999996,"Jenis":"Perdagangan"}},{"type":"Feature","id":6,"geometry":{"type":"Point","coordinates":[110.54228530000006,-7.6813332999999488,0,null]},"properties":{"FID":6,"OID_":0,"Name":"Kharisma Wedding","FolderPath":"UMKM ds Karangduren/Karangduren","Easting":110.5422853,"Northing":-7.6813333000000004,"Jenis":"Jasa"}},{"type":"Feature","id":7,"geometry":{"type":"Point","coordinates":[110.53762910000006,-7.6835871999999767,0,null]},"properties":{"FID":7,"OID_":0,"Name":"Erli Hijab Collection","FolderPath":"UMKM ds Karangduren/Karangduren","Easting":110.5376291,"Northing":-7.6835871999999998,"Jenis":"Perdagangan"}},{"type":"Feature","id":8,"geometry":{"type":"Point","coordinates":[110.53731580000004,-7.6833321999999384,0,null]},"properties":{"FID":8,"OID_":0,"Name":"Toko Lestari Baru","FolderPath":"UMKM ds Karangduren/Karangduren","Easting":110.5373158,"Northing":-7.6833321999999997,"Jenis":"Perdagangan"}},{"type":"Feature","id":9,"geometry":{"type":"Point","coordinates":[110.53751630000005,-7.6831805999999574,0,null]},"properties":{"FID":9,"OID_":0,"Name":"Kahfi Shop","FolderPath":"UMKM ds Karangduren/Karangduren","Easting":110.53751629999999,"Northing":-7.6831806,"Jenis":"Perdagangan"}},{"type":"Feature","id":10,"geometry":{"type":"Point","coordinates":[110.53765170000008,-7.6839043999999603,0,null]},"properties":{"FID":10,"OID_":0,"Name":"Nila Pak Haryana","FolderPath":"UMKM ds Karangduren/Karangduren","Easting":110.5376517,"Northing":-7.6839044000000003,"Jenis":"Perdagangan"}},{"type":"Feature","id":11,"geometry":{"type":"Point","coordinates":[110.54082530000005,-7.6823011999999267,0,null]},"properties":{"FID":11,"OID_":0,"Name":"Kedai Uwuu","FolderPath":"UMKM ds Karangduren/Karangduren","Easting":110.54082529999999,"Northing":-7.6823012000000004,"Jenis":"Kuliner"}},{"type":"Feature","id":12,"geometry":{"type":"Point","coordinates":[110.54038640000005,-7.6816556999999648,0,null]},"properties":{"FID":12,"OID_":0,"Name":"Nasi Gudangan & Bubur Yu Tik","FolderPath":"UMKM ds Karangduren/Karangduren","Easting":110.5403864,"Northing":-7.6816557000000003,"Jenis":"Kuliner"}},{"type":"Feature","id":13,"geometry":{"type":"Point","coordinates":[110.54146890000004,-7.6830128999999374,0,null]},"properties":{"FID":13,"OID_":0,"Name":"Warung Soto & Sop Iga Pak Slamet","FolderPath":"UMKM ds Karangduren/Karangduren","Easting":110.5414689,"Northing":-7.6830128999999996,"Jenis":"Kuliner"}},{"type":"Feature","id":14,"geometry":{"type":"Point","coordinates":[110.54099730000007,-7.6828692999999362,0,null]},"properties":{"FID":14,"OID_":0,"Name":"Depo Pasir Siom","FolderPath":"UMKM ds Karangduren/Karangduren","Easting":110.5409973,"Northing":-7.6828693000000001,"Jenis":"Perdagangan"}},{"type":"Feature","id":15,"geometry":{"type":"Point","coordinates":[110.54298560000007,-7.6852358999999524,0,null]},"properties":{"FID":15,"OID_":0,"Name":"Toko Kelontong Nursahid","FolderPath":"UMKM ds Karangduren/Karangduren","Easting":110.54298559999999,"Northing":-7.6852359000000003,"Jenis":"Perdagangan"}},{"type":"Feature","id":16,"geometry":{"type":"Point","coordinates":[110.54293340000004,-7.6851167999999461,0,null]},"properties":{"FID":16,"OID_":0,"Name":"Bengkel Motor","FolderPath":"UMKM ds Karangduren/Karangduren","Easting":110.5429334,"Northing":-7.6851168000000003,"Jenis":"Jasa"}},{"type":"Feature","id":17,"geometry":{"type":"Point","coordinates":[110.54287340000008,-7.6850090999999452,0,null]},"properties":{"FID":17,"OID_":0,"Name":"Toko Sayur","FolderPath":"UMKM ds Karangduren/Karangduren","Easting":110.5428734,"Northing":-7.6850091000000003,"Jenis":"Perdagangan"}},{"type":"Feature","id":18,"geometry":{"type":"Point","coordinates":[110.54272650000007,-7.68644809999995,0,null]},"properties":{"FID":18,"OID_":0,"Name":"21 Motor","FolderPath":"UMKM ds Karangduren/Karangduren","Easting":110.5427265,"Northing":-7.6864480999999998,"Jenis":"Jasa"}},{"type":"Feature","id":19,"geometry":{"type":"Point","coordinates":[110.54200760000003,-7.6865530999999692,0,null]},"properties":{"FID":19,"OID_":0,"Name":"Kripik Tempe Sagu Leksana","FolderPath":"UMKM ds Karangduren/Karangduren","Easting":110.54200760000001,"Northing":-7.6865531000000002,"Jenis":"Produk Olahan"}},{"type":"Feature","id":20,"geometry":{"type":"Point","coordinates":[110.54198220000006,-7.6864214999999376,0,null]},"properties":{"FID":20,"OID_":0,"Name":"GPL Internet Acces","FolderPath":"UMKM ds Karangduren/Karangduren","Easting":110.54198220000001,"Northing":-7.6864214999999998,"Jenis":"Jasa"}},{"type":"Feature","id":21,"geometry":{"type":"Point","coordinates":[110.54368090000008,-7.6863231999999471,0,null]},"properties":{"FID":21,"OID_":0,"Name":"Depo Pasir SBM Junior","FolderPath":"UMKM ds Karangduren/Karangduren","Easting":110.5436809,"Northing":-7.6863232000000004,"Jenis":"Perdagangan"}},{"type":"Feature","id":22,"geometry":{"type":"Point","coordinates":[110.54407140000006,-7.6869814999999448,0,null]},"properties":{"FID":22,"OID_":0,"Name":"Stone Crusher Semar","FolderPath":"UMKM ds Karangduren/Karangduren","Easting":110.54407140000001,"Northing":-7.6869814999999999,"Jenis":"Perdagangan"}},{"type":"Feature","id":23,"geometry":{"type":"Point","coordinates":[110.54441790000004,-7.6869788999999287,0,null]},"properties":{"FID":23,"OID_":0,"Name":"Toko Besi & Material Pokoh Baru","FolderPath":"UMKM ds Karangduren/Karangduren","Easting":110.5444179,"Northing":-7.6869788999999997,"Jenis":"Perdagangan"}},{"type":"Feature","id":24,"geometry":{"type":"Point","coordinates":[110.54455860000007,-7.6872234999999591,0,null]},"properties":{"FID":24,"OID_":0,"Name":"Balai Vape Store","FolderPath":"UMKM ds Karangduren/Karangduren","Easting":110.5445586,"Northing":-7.6872235,"Jenis":"Perdagangan"}},{"type":"Feature","id":25,"geometry":{"type":"Point","coordinates":[110.54488280000004,-7.6877095999999483,0,null]},"properties":{"FID":25,"OID_":0,"Name":"Bengkel Motor","FolderPath":"UMKM ds Karangduren/Karangduren","Easting":110.5448828,"Northing":-7.6877095999999998,"Jenis":"Jasa"}},{"type":"Feature","id":26,"geometry":{"type":"Point","coordinates":[110.54491700000005,-7.6877653999999325,0,null]},"properties":{"FID":26,"OID_":0,"Name":"Bengkel Bubut","FolderPath":"UMKM ds Karangduren/Karangduren","Easting":110.544917,"Northing":-7.6877654,"Jenis":"Jasa"}},{"type":"Feature","id":27,"geometry":{"type":"Point","coordinates":[110.54495450000007,-7.6878836999999294,0,null]},"properties":{"FID":27,"OID_":0,"Name":"Es Teh Walang","FolderPath":"UMKM ds Karangduren/Karangduren","Easting":110.5449545,"Northing":-7.6878837000000004,"Jenis":"Kuliner"}},{"type":"Feature","id":28,"geometry":{"type":"Point","coordinates":[110.54455670000004,-7.687686499999927,0,null]},"properties":{"FID":28,"OID_":0,"Name":"Depo Pasir Murah","FolderPath":"UMKM ds Karangduren/Karangduren","Easting":110.5445567,"Northing":-7.6876864999999999,"Jenis":"Perdagangan"}},{"type":"Feature","id":29,"geometry":{"type":"Point","coordinates":[110.54535430000004,-7.68872099999993,0,null]},"properties":{"FID":29,"OID_":0,"Name":"Depo Pasir PSA","FolderPath":"UMKM ds Karangduren/Karangduren","Easting":110.5453543,"Northing":-7.6887210000000001,"Jenis":"Perdagangan"}},{"type":"Feature","id":30,"geometry":{"type":"Point","coordinates":[110.54534760000007,-7.6883410999999455,0,null]},"properties":{"FID":30,"OID_":0,"Name":"Toko Madura Fitria","FolderPath":"UMKM ds Karangduren/Karangduren","Easting":110.5453476,"Northing":-7.6883410999999997,"Jenis":"Perdagangan"}},{"type":"Feature","id":31,"geometry":{"type":"Point","coordinates":[110.54541400000005,-7.6884054999999307,0,null]},"properties":{"FID":31,"OID_":0,"Name":"Toko & Warung Makan Adhaan","FolderPath":"UMKM ds Karangduren/Karangduren","Easting":110.54541399999999,"Northing":-7.6884055,"Jenis":"Kuliner"}},{"type":"Feature","id":32,"geometry":{"type":"Point","coordinates":[110.54554860000007,-7.6885594999999398,0,null]},"properties":{"FID":32,"OID_":0,"Name":"Bengkel Las Furqon","FolderPath":"UMKM ds Karangduren/Karangduren","Easting":110.5455486,"Northing":-7.6885595000000002,"Jenis":"Jasa"}},{"type":"Feature","id":33,"geometry":{"type":"Point","coordinates":[110.54549160000005,-7.6886065999999573,0,null]},"properties":{"FID":33,"OID_":0,"Name":"Bengkel Motor Alvaro","FolderPath":"UMKM ds Karangduren/Karangduren","Easting":110.54549160000001,"Northing":-7.6886066,"Jenis":"Jasa"}},{"type":"Feature","id":34,"geometry":{"type":"Point","coordinates":[110.54543200000006,-7.6885112999999592,0,null]},"properties":{"FID":34,"OID_":0,"Name":"Warung Makan Pecel Lele","FolderPath":"UMKM ds Karangduren/Karangduren","Easting":110.54543200000001,"Northing":-7.6885113,"Jenis":"Kuliner"}},{"type":"Feature","id":35,"geometry":{"type":"Point","coordinates":[110.54557870000008,-7.6889807999999675,0,null]},"properties":{"FID":35,"OID_":0,"Name":"CV. ADT ","FolderPath":"UMKM ds Karangduren/Karangduren","Easting":110.54557869999999,"Northing":-7.6889808000000004,"Jenis":"Perdagangan"}},{"type":"Feature","id":36,"geometry":{"type":"Point","coordinates":[110.54571220000008,-7.6887846999999283,0,null]},"properties":{"FID":36,"OID_":0,"Name":"Angkringan Sor Pelem","FolderPath":"UMKM ds Karangduren/Karangduren","Easting":110.5457122,"Northing":-7.6887847000000002,"Jenis":"Kuliner"}},{"type":"Feature","id":37,"geometry":{"type":"Point","coordinates":[110.54580610000005,-7.6889759999999683,0,null]},"properties":{"FID":37,"OID_":0,"Name":"TB Tukung Agung 2","FolderPath":"UMKM ds Karangduren/Karangduren","Easting":110.54580609999999,"Northing":-7.6889760000000003,"Jenis":"Perdagangan"}},{"type":"Feature","id":38,"geometry":{"type":"Point","coordinates":[110.54582050000005,-7.6890643999999497,0,null]},"properties":{"FID":38,"OID_":0,"Name":"Es Teh Best Tea","FolderPath":"UMKM ds Karangduren/Karangduren","Easting":110.5458205,"Northing":-7.6890644000000004,"Jenis":"Kuliner"}},{"type":"Feature","id":39,"geometry":{"type":"Point","coordinates":[110.54612560000004,-7.6893969999999285,0,null]},"properties":{"FID":39,"OID_":0,"Name":"Toko Plastik Pak Mario","FolderPath":"UMKM ds Karangduren/Karangduren","Easting":110.5461256,"Northing":-7.6893969999999996,"Jenis":"Perdagangan"}},{"type":"Feature","id":40,"geometry":{"type":"Point","coordinates":[110.54639460000004,-7.6897901999999476,0,null]},"properties":{"FID":40,"OID_":0,"Name":"Warung Bakmi Jowo & Nasgor Pak Yatin","FolderPath":"UMKM ds Karangduren/Karangduren","Easting":110.5463946,"Northing":-7.6897902,"Jenis":"Kuliner"}},{"type":"Feature","id":41,"geometry":{"type":"Point","coordinates":[110.54663000000005,-7.6900705999999559,0,null]},"properties":{"FID":41,"OID_":0,"Name":"Es Dawet Mas Zakaria","FolderPath":"UMKM ds Karangduren/Karangduren","Easting":110.54662999999999,"Northing":-7.6900706000000003,"Jenis":"Kuliner"}},{"type":"Feature","id":42,"geometry":{"type":"Point","coordinates":[110.54669840000008,-7.6902214999999501,0,null]},"properties":{"FID":42,"OID_":0,"Name":"Kayana Mart","FolderPath":"UMKM ds Karangduren/Karangduren","Easting":110.5466984,"Northing":-7.6902214999999998,"Jenis":"Perdagangan"}},{"type":"Feature","id":43,"geometry":{"type":"Point","coordinates":[110.54722420000007,-7.6913720999999668,0,null]},"properties":{"FID":43,"OID_":0,"Name":"Citra Multi Karya Crusher","FolderPath":"UMKM ds Karangduren/Karangduren","Easting":110.5472242,"Northing":-7.6913720999999997,"Jenis":"Perdagangan"}},{"type":"Feature","id":44,"geometry":{"type":"Point","coordinates":[110.54537560000006,-7.6846684999999297,0,null]},"properties":{"FID":44,"OID_":0,"Name":"Bengkel Traktor Sentur","FolderPath":"UMKM ds Karangduren/Karangduren","Easting":110.5453756,"Northing":-7.6846684999999999,"Jenis":"Jasa"}},{"type":"Feature","id":45,"geometry":{"type":"Point","coordinates":[110.54578570000007,-7.6847044999999525,0,null]},"properties":{"FID":45,"OID_":0,"Name":"Viona Cell","FolderPath":"UMKM ds Karangduren/Karangduren","Easting":110.5457857,"Northing":-7.6847044999999996,"Jenis":"Jasa"}},{"type":"Feature","id":46,"geometry":{"type":"Point","coordinates":[110.54580380000004,-7.6847500999999738,0,null]},"properties":{"FID":46,"OID_":0,"Name":"Toko & Sayur Lek Gun","FolderPath":"UMKM ds Karangduren/Karangduren","Easting":110.5458038,"Northing":-7.6847500999999996,"Jenis":"Perdagangan"}},{"type":"Feature","id":47,"geometry":{"type":"Point","coordinates":[110.54648440000005,-7.6855399999999463,0,null]},"properties":{"FID":47,"OID_":0,"Name":"Pangkalan Gas LPG Izza Narendra","FolderPath":"UMKM ds Karangduren/Karangduren","Easting":110.5464844,"Northing":-7.6855399999999996,"Jenis":"Perdagangan"}},{"type":"Feature","id":48,"geometry":{"type":"Point","coordinates":[110.54661690000006,-7.6860653999999613,0,null]},"properties":{"FID":48,"OID_":0,"Name":"Ilham Transport","FolderPath":"UMKM ds Karangduren/Karangduren","Easting":110.5466169,"Northing":-7.6860654000000004,"Jenis":"Jasa"}},{"type":"Feature","id":49,"geometry":{"type":"Point","coordinates":[110.54713470000007,-7.6864651999999296,0,null]},"properties":{"FID":49,"OID_":0,"Name":"Sayur Segar Bu Parini","FolderPath":"UMKM ds Karangduren/Karangduren","Easting":110.5471347,"Northing":-7.6864651999999998,"Jenis":"Perdagangan"}},{"type":"Feature","id":50,"geometry":{"type":"Point","coordinates":[110.54718900000006,-7.6863907999999697,0,null]},"properties":{"FID":50,"OID_":0,"Name":"Pilar Frozenfood","FolderPath":"UMKM ds Karangduren/Karangduren","Easting":110.547189,"Northing":-7.6863907999999999,"Jenis":"Perdagangan"}},{"type":"Feature","id":51,"geometry":{"type":"Point","coordinates":[110.54793590000008,-7.6858908999999471,0,null]},"properties":{"FID":51,"OID_":0,"Name":"Bengkel Motor Deva","FolderPath":"UMKM ds Karangduren/Karangduren","Easting":110.5479359,"Northing":-7.6858909000000004,"Jenis":"Jasa"}},{"type":"Feature","id":52,"geometry":{"type":"Point","coordinates":[110.54767100000004,-7.6853282999999806,0,null]},"properties":{"FID":52,"OID_":0,"Name":"Warung Soto Bu Pon","FolderPath":"UMKM ds Karangduren/Karangduren","Easting":110.54767099999999,"Northing":-7.6853283000000001,"Jenis":"Kuliner"}},{"type":"Feature","id":53,"geometry":{"type":"Point","coordinates":[110.54751610000005,-7.6854119999999284,0,null]},"properties":{"FID":53,"OID_":0,"Name":"Toko Bu Kariyem","FolderPath":"UMKM ds Karangduren/Karangduren","Easting":110.5475161,"Northing":-7.6854120000000004,"Jenis":"Perdagangan"}},{"type":"Feature","id":54,"geometry":{"type":"Point","coordinates":[110.54781090000006,-7.6874676999999565,0,null]},"properties":{"FID":54,"OID_":0,"Name":"Sayur Matang Bu Mini","FolderPath":"UMKM ds Karangduren/Karangduren","Easting":110.5478109,"Northing":-7.6874677,"Jenis":"Kuliner"}},{"type":"Feature","id":55,"geometry":{"type":"Point","coordinates":[110.54777500000006,-7.6876273999999398,0,null]},"properties":{"FID":55,"OID_":0,"Name":"Jasa Dekorasi Klaten","FolderPath":"UMKM ds Karangduren/Karangduren","Easting":110.547775,"Northing":-7.6876274000000002,"Jenis":"Jasa"}},{"type":"Feature","id":56,"geometry":{"type":"Point","coordinates":[110.55006730000008,-7.6878363999999806,0,null]},"properties":{"FID":56,"OID_":0,"Name":"Budidaya Jamur Bakal","FolderPath":"UMKM ds Karangduren/Karangduren","Easting":110.55006729999999,"Northing":-7.6878364000000001,"Jenis":"Pertanian & Peternakan"}},{"type":"Feature","id":57,"geometry":{"type":"Point","coordinates":[110.54396670000006,-7.6852157999999804,0,null]},"properties":{"FID":57,"OID_":0,"Name":"Penjahit Marjono","FolderPath":"UMKM ds Karangduren/Karangduren","Easting":110.5439667,"Northing":-7.6852157999999999,"Jenis":"Jasa"}},{"type":"Feature","id":58,"geometry":{"type":"Point","coordinates":[110.54414370000006,-7.6850390999999263,0,null]},"properties":{"FID":58,"OID_":0,"Name":"Toko Pak Akang","FolderPath":"UMKM ds Karangduren/Karangduren","Easting":110.54414370000001,"Northing":-7.6850391,"Jenis":"Perdagangan"}},{"type":"Feature","id":59,"geometry":{"type":"Point","coordinates":[110.54414640000005,-7.6850017999999523,0,null]},"properties":{"FID":59,"OID_":0,"Name":"Krupuk Subur","FolderPath":"UMKM ds Karangduren/Karangduren","Easting":110.5441464,"Northing":-7.6850018000000002,"Jenis":"Produk Olahan"}},{"type":"Feature","id":60,"geometry":{"type":"Point","coordinates":[110.54430280000008,-7.685265999999956,0,null]},"properties":{"FID":60,"OID_":0,"Name":"Mekanik Mesin Jahit ","FolderPath":"UMKM ds Karangduren/Karangduren","Easting":110.5443028,"Northing":-7.6852660000000004,"Jenis":"Jasa"}},{"type":"Feature","id":61,"geometry":{"type":"Point","coordinates":[110.54461830000008,-7.6854374999999777,0,null]},"properties":{"FID":61,"OID_":0,"Name":"Tempe Godong Bu Keni","FolderPath":"UMKM ds Karangduren/Karangduren","Easting":110.5446183,"Northing":-7.6854374999999999,"Jenis":"Produk Olahan"}},{"type":"Feature","id":62,"geometry":{"type":"Point","coordinates":[110.54476650000004,-7.685317199999929,0,null]},"properties":{"FID":62,"OID_":0,"Name":"Kolam Lele Pak Win","FolderPath":"UMKM ds Karangduren/Karangduren","Easting":110.54476649999999,"Northing":-7.6853172000000001,"Jenis":"Pertanian & Peternakan"}},{"type":"Feature","id":63,"geometry":{"type":"Point","coordinates":[110.54471890000008,-7.6857544999999732,0,null]},"properties":{"FID":63,"OID_":0,"Name":"Market Dimsum","FolderPath":"UMKM ds Karangduren/Karangduren","Easting":110.54471890000001,"Northing":-7.6857544999999998,"Jenis":"Perdagangan"}},{"type":"Feature","id":64,"geometry":{"type":"Point","coordinates":[110.54548850000003,-7.687472899999932,0,null]},"properties":{"FID":64,"OID_":0,"Name":"Telur Asin Bu Anis","FolderPath":"UMKM ds Karangduren/Karangduren","Easting":110.5454885,"Northing":-7.6874729000000004,"Jenis":"Produk Olahan"}},{"type":"Feature","id":65,"geometry":{"type":"Point","coordinates":[110.55034390000009,-7.6886747999999443,0,null]},"properties":{"FID":65,"OID_":0,"Name":"Wahyu Putra Entertainment","FolderPath":"UMKM ds Karangduren/Karangduren","Easting":110.5503439,"Northing":-7.6886748000000003,"Jenis":"Jasa"}},{"type":"Feature","id":66,"geometry":{"type":"Point","coordinates":[110.55038230000008,-7.6890824999999268,0,null]},"properties":{"FID":66,"OID_":0,"Name":"Mr. Mushroom","FolderPath":"UMKM ds Karangduren/Karangduren","Easting":110.5503823,"Northing":-7.6890824999999996,"Jenis":"Pertanian & Peternakan"}},{"type":"Feature","id":67,"geometry":{"type":"Point","coordinates":[110.54958520000008,-7.6887739999999667,0,null]},"properties":{"FID":67,"OID_":0,"Name":"Daily Swass","FolderPath":"UMKM ds Karangduren/Karangduren","Easting":110.5495852,"Northing":-7.6887740000000004,"Jenis":"Perdagangan"}},{"type":"Feature","id":68,"geometry":{"type":"Point","coordinates":[110.55050880000005,-7.6904570999999464,0,null]},"properties":{"FID":68,"OID_":0,"Name":"Anisha Laundry","FolderPath":"UMKM ds Karangduren/Karangduren","Easting":110.5505088,"Northing":-7.6904570999999997,"Jenis":"Jasa"}},{"type":"Feature","id":69,"geometry":{"type":"Point","coordinates":[110.55052950000004,-7.6905401999999299,0,null]},"properties":{"FID":69,"OID_":0,"Name":"Sitta Collection","FolderPath":"UMKM ds Karangduren/Karangduren","Easting":110.5505295,"Northing":-7.6905402,"Jenis":"Perdagangan"}},{"type":"Feature","id":70,"geometry":{"type":"Point","coordinates":[110.55131550000004,-7.6909551999999621,0,null]},"properties":{"FID":70,"OID_":0,"Name":"Warung Sidoel","FolderPath":"UMKM ds Karangduren/Karangduren","Easting":110.5513155,"Northing":-7.6909552000000003,"Jenis":"Kuliner"}},{"type":"Feature","id":71,"geometry":{"type":"Point","coordinates":[110.55141210000005,-7.6910801999999308,0,null]},"properties":{"FID":71,"OID_":0,"Name":"Warung Agnes","FolderPath":"UMKM ds Karangduren/Karangduren","Easting":110.55141209999999,"Northing":-7.6910802,"Jenis":"Kuliner"}},{"type":"Feature","id":72,"geometry":{"type":"Point","coordinates":[110.55055720000007,-7.6914954999999736,0,null]},"properties":{"FID":72,"OID_":0,"Name":"Service Kompor & Elektronik Eko","FolderPath":"UMKM ds Karangduren/Karangduren","Easting":110.5505572,"Northing":-7.6914955000000003,"Jenis":"Jasa"}},{"type":"Feature","id":73,"geometry":{"type":"Point","coordinates":[110.55218590000004,-7.6918708999999694,0,null]},"properties":{"FID":73,"OID_":0,"Name":"Warung Om Tri","FolderPath":"UMKM ds Karangduren/Karangduren","Easting":110.5521859,"Northing":-7.6918708999999996,"Jenis":"Kuliner"}},{"type":"Feature","id":74,"geometry":{"type":"Point","coordinates":[110.55331280000007,-7.6904647999999725,0,null]},"properties":{"FID":74,"OID_":0,"Name":"Warung Soto Mak Yuk","FolderPath":"UMKM ds Karangduren/Karangduren","Easting":110.5533128,"Northing":-7.6904648,"Jenis":"Kuliner"}},{"type":"Feature","id":75,"geometry":{"type":"Point","coordinates":[110.55467620000007,-7.6876975999999786,0,null]},"properties":{"FID":75,"OID_":0,"Name":"Angkringan Tenda Biru","FolderPath":"UMKM ds Karangduren/Karangduren","Easting":110.5546762,"Northing":-7.6876975999999999,"Jenis":"Kuliner"}},{"type":"Feature","id":76,"geometry":{"type":"Point","coordinates":[110.55552320000004,-7.6884147999999755,0,null]},"properties":{"FID":76,"OID_":0,"Name":"Bengkel Las & Alumunium Edy","FolderPath":"UMKM ds Karangduren/Karangduren","Easting":110.5555232,"Northing":-7.6884148000000003,"Jenis":"Jasa"}},{"type":"Feature","id":77,"geometry":{"type":"Point","coordinates":[110.55500420000004,-7.6898356999999464,0,null]},"properties":{"FID":77,"OID_":0,"Name":"Warung Bu Ni","FolderPath":"UMKM ds Karangduren/Karangduren","Easting":110.5550042,"Northing":-7.6898356999999997,"Jenis":"Kuliner"}},{"type":"Feature","id":78,"geometry":{"type":"Point","coordinates":[110.55533540000005,-7.690482799999927,0,null]},"properties":{"FID":78,"OID_":0,"Name":"Telur Bebek Pak Widodo","FolderPath":"UMKM ds Karangduren/Karangduren","Easting":110.5553354,"Northing":-7.6904827999999998,"Jenis":"Produk Olahan"}},{"type":"Feature","id":79,"geometry":{"type":"Point","coordinates":[110.55553520000007,-7.6907365999999797,0,null]},"properties":{"FID":79,"OID_":0,"Name":"Persada Alumunium","FolderPath":"UMKM ds Karangduren/Karangduren","Easting":110.55553519999999,"Northing":-7.6907366000000001,"Jenis":"Jasa"}},{"type":"Feature","id":80,"geometry":{"type":"Point","coordinates":[110.55608020000005,-7.6906516999999326,0,null]},"properties":{"FID":80,"OID_":0,"Name":"Bebek Goreng Bu Saidah","FolderPath":"UMKM ds Karangduren/Karangduren","Easting":110.5560802,"Northing":-7.6906517000000001,"Jenis":"Kuliner"}},{"type":"Feature","id":81,"geometry":{"type":"Point","coordinates":[110.55657670000005,-7.6914637999999513,0,null]},"properties":{"FID":81,"OID_":0,"Name":"Putri Laundry","FolderPath":"UMKM ds Karangduren/Karangduren","Easting":110.55657669999999,"Northing":-7.6914638000000002,"Jenis":"Jasa"}},{"type":"Feature","id":82,"geometry":{"type":"Point","coordinates":[110.55685570000009,-7.6914850999999658,0,null]},"properties":{"FID":82,"OID_":0,"Name":"Toko Tas Anyam & Rajut Gianti","FolderPath":"UMKM ds Karangduren/Karangduren","Easting":110.5568557,"Northing":-7.6914851000000004,"Jenis":"Kerajinan"}},{"type":"Feature","id":83,"geometry":{"type":"Point","coordinates":[110.55690970000006,-7.6924512999999592,0,null]},"properties":{"FID":83,"OID_":0,"Name":"Pizza Homemade Bu Linda","FolderPath":"UMKM ds Karangduren/Karangduren","Easting":110.55690970000001,"Northing":-7.6924513000000001,"Jenis":"Kuliner"}},{"type":"Feature","id":84,"geometry":{"type":"Point","coordinates":[110.55698190000004,-7.6919949999999631,0,null]},"properties":{"FID":84,"OID_":0,"Name":"Kedai Sindi","FolderPath":"UMKM ds Karangduren/Karangduren","Easting":110.5569819,"Northing":-7.6919950000000004,"Jenis":"Kuliner"}},{"type":"Feature","id":85,"geometry":{"type":"Point","coordinates":[110.55365010000008,-7.6946830999999634,0,null]},"properties":{"FID":85,"OID_":0,"Name":"Toko Sembako & Jamur Bu Tatik","FolderPath":"UMKM ds Karangduren/Karangduren","Easting":110.5536501,"Northing":-7.6946830999999998,"Jenis":"Perdagangan"}},{"type":"Feature","id":86,"geometry":{"type":"Point","coordinates":[110.55360050000007,-7.6945155999999315,0,null]},"properties":{"FID":86,"OID_":0,"Name":"Supri Sound System","FolderPath":"UMKM ds Karangduren/Karangduren","Easting":110.5536005,"Northing":-7.6945155999999999,"Jenis":"Jasa"}},{"type":"Feature","id":87,"geometry":{"type":"Point","coordinates":[110.55430130000008,-7.6945607999999766,0,null]},"properties":{"FID":87,"OID_":0,"Name":"Khasanah Snack","FolderPath":"UMKM ds Karangduren/Karangduren","Easting":110.55430130000001,"Northing":-7.6945607999999996,"Jenis":"Kuliner"}},{"type":"Feature","id":88,"geometry":{"type":"Point","coordinates":[110.55479750000006,-7.6943760999999427,0,null]},"properties":{"FID":88,"OID_":0,"Name":"Grosir Rempah","FolderPath":"UMKM ds Karangduren/Karangduren","Easting":110.55479750000001,"Northing":-7.6943761000000004,"Jenis":"Perdagangan"}},{"type":"Feature","id":89,"geometry":{"type":"Point","coordinates":[110.55422460000005,-7.694657799999959,0,null]},"properties":{"FID":89,"OID_":0,"Name":"Nadhif Zea Catering","FolderPath":"UMKM ds Karangduren/Karangduren","Easting":110.5542246,"Northing":-7.6946577999999999,"Jenis":"Kuliner"}},{"type":"Feature","id":90,"geometry":{"type":"Point","coordinates":[110.55485090000008,-7.6950431999999296,0,null]},"properties":{"FID":90,"OID_":0,"Name":"Bengkel Tohjoyo","FolderPath":"UMKM ds Karangduren/Karangduren","Easting":110.55485090000001,"Northing":-7.6950431999999998,"Jenis":"Jasa"}},{"type":"Feature","id":91,"geometry":{"type":"Point","coordinates":[110.55408250000005,-7.6951733999999306,0,null]},"properties":{"FID":91,"OID_":0,"Name":"Toko Bu Hardani","FolderPath":"UMKM ds Karangduren/Karangduren","Easting":110.55408250000001,"Northing":-7.6951733999999998,"Jenis":"Perdagangan"}},{"type":"Feature","id":92,"geometry":{"type":"Point","coordinates":[110.55504300000007,-7.6945927999999526,0,null]},"properties":{"FID":92,"OID_":0,"Name":"Bakul Sepatuid","FolderPath":"UMKM ds Karangduren/Karangduren","Easting":110.555043,"Northing":-7.6945927999999997,"Jenis":"Perdagangan"}},{"type":"Feature","id":93,"geometry":{"type":"Point","coordinates":[110.55529170000005,-7.6951867999999308,0,null]},"properties":{"FID":93,"OID_":0,"Name":"Desain Interior Custom","FolderPath":"UMKM ds Karangduren/Karangduren","Easting":110.5552917,"Northing":-7.6951868000000001,"Jenis":"Jasa"}},{"type":"Feature","id":94,"geometry":{"type":"Point","coordinates":[110.55528050000004,-7.6953249999999684,0,null]},"properties":{"FID":94,"OID_":0,"Name":"Global Teknik Service","FolderPath":"UMKM ds Karangduren/Karangduren","Easting":110.55528049999999,"Northing":-7.6953250000000004,"Jenis":"Jasa"}},{"type":"Feature","id":95,"geometry":{"type":"Point","coordinates":[110.55529260000009,-7.6954299999999307,0,null]},"properties":{"FID":95,"OID_":0,"Name":"Kedai Anugerah Pak Mardi","FolderPath":"UMKM ds Karangduren/Karangduren","Easting":110.5552926,"Northing":-7.69543,"Jenis":"Kuliner"}},{"type":"Feature","id":96,"geometry":{"type":"Point","coordinates":[110.55598250000008,-7.6954604999999674,0,null]},"properties":{"FID":96,"OID_":0,"Name":"Pangkalan Gas LPG Pak Parnyoto","FolderPath":"UMKM ds Karangduren/Karangduren","Easting":110.5559825,"Northing":-7.6954605000000003,"Jenis":"Perdagangan"}},{"type":"Feature","id":97,"geometry":{"type":"Point","coordinates":[110.55593490000007,-7.6953713999999422,0,null]},"properties":{"FID":97,"OID_":0,"Name":"Nono Sayur","FolderPath":"UMKM ds Karangduren/Karangduren","Easting":110.5559349,"Northing":-7.6953714,"Jenis":"Perdagangan"}},{"type":"Feature","id":98,"geometry":{"type":"Point","coordinates":[110.55608380000007,-7.6957235999999511,0,null]},"properties":{"FID":98,"OID_":0,"Name":"Kedai Bu Yus","FolderPath":"UMKM ds Karangduren/Karangduren","Easting":110.5560838,"Northing":-7.6957236,"Jenis":"Kuliner"}},{"type":"Feature","id":99,"geometry":{"type":"Point","coordinates":[110.55590210000008,-7.6958697999999686,0,null]},"properties":{"FID":99,"OID_":0,"Name":"Ikan Asin Dua Saudara","FolderPath":"UMKM ds Karangduren/Karangduren","Easting":110.5559021,"Northing":-7.6958697999999996,"Jenis":"Produk Olahan"}},{"type":"Feature","id":100,"geometry":{"type":"Point","coordinates":[110.55646260000009,-7.6962418999999613,0,null]},"properties":{"FID":100,"OID_":0,"Name":"Warung Bunda Ara","FolderPath":"UMKM ds Karangduren/Karangduren","Easting":110.5564626,"Northing":-7.6962419000000004,"Jenis":"Kuliner"}},{"type":"Feature","id":101,"geometry":{"type":"Point","coordinates":[110.55591280000004,-7.6966299999999706,0,null]},"properties":{"FID":101,"OID_":0,"Name":"Askata Shop","FolderPath":"UMKM ds Karangduren/Karangduren","Easting":110.5559128,"Northing":-7.6966299999999999,"Jenis":"Perdagangan"}},{"type":"Feature","id":102,"geometry":{"type":"Point","coordinates":[110.54836100000006,-7.6905906999999729,0,null]},"properties":{"FID":102,"OID_":0,"Name":"Toko Mbak Santi","FolderPath":"UMKM ds Karangduren/Karangduren","Easting":110.548361,"Northing":-7.6905906999999996,"Jenis":"Perdagangan"}},{"type":"Feature","id":103,"geometry":{"type":"Point","coordinates":[110.54834350000004,-7.6909362999999757,0,null]},"properties":{"FID":103,"OID_":0,"Name":"Toko Kelontong Pojok","FolderPath":"UMKM ds Karangduren/Karangduren","Easting":110.5483435,"Northing":-7.6909362999999997,"Jenis":"Perdagangan"}},{"type":"Feature","id":104,"geometry":{"type":"Point","coordinates":[110.54764660000006,-7.6908158999999614,0,null]},"properties":{"FID":104,"OID_":0,"Name":"Bale Manten","FolderPath":"UMKM ds Karangduren/Karangduren","Easting":110.54764659999999,"Northing":-7.6908158999999996,"Jenis":"Jasa"}},{"type":"Feature","id":105,"geometry":{"type":"Point","coordinates":[110.54892830000006,-7.6911512999999445,0,null]},"properties":{"FID":105,"OID_":0,"Name":"Bengkel Las Amanah Edy","FolderPath":"UMKM ds Karangduren/Karangduren","Easting":110.5489283,"Northing":-7.6911512999999996,"Jenis":"Jasa"}},{"type":"Feature","id":106,"geometry":{"type":"Point","coordinates":[110.55811260000007,-7.6915394999999762,0,null]},"properties":{"FID":106,"OID_":0,"Name":"Susu Kambing Etawa Bu Setyawati","FolderPath":"UMKM ds Karangduren/Karangduren","Easting":110.5581126,"Northing":-7.6915395000000002,"Jenis":"Perdagangan"}},{"type":"Feature","id":107,"geometry":{"type":"Point","coordinates":[110.55471980000004,-7.6849248999999418,0,null]},"properties":{"FID":107,"OID_":0,"Name":"Aneka Kue Basah","FolderPath":"UMKM ds Karangduren/Karangduren","Easting":110.5547198,"Northing":-7.6849249000000004,"Jenis":"Kuliner"}},{"type":"Feature","id":108,"geometry":{"type":"Point","coordinates":[110.54382870000006,-7.6898462999999371,0,null]},"properties":{"FID":108,"OID_":0,"Name":"Suyono Farm","FolderPath":"UMKM ds Karangduren/Karangduren","Easting":110.54382870000001,"Northing":-7.6898463000000001,"Jenis":"Pertanian & Peternakan"}}]}
